주소,위도,경도
전라북도 전주시 완산구 모악산자락길 22-0,35.76749289,127.101535
전라북도 전주시 완산구 구이로 2011,35.77730089,127.1284403
전라북도 전주시 완산구 평화3길 4-3,35.7832377,127.1328445
전라북도 전주시 완산구 양지1길 16-3,35.79092759,127.118871
전라북도 전주시 완산구 모악로 4703-0,35.78933714,127.1304279
전라북도 전주시 완산구 소대배기로 28,35.78676726,127.1332306
전라북도 전주시 완산구 양지2길 11-15,35.79284385,127.1248432
전라북도 전주시 완산구 맏내로 28-0,35.78453749,127.1274514
전라북도 전주시 완산구 구이로 2094-0,35.78322279,127.131981
전라북도 전주시 완산구 평화로 106-0,35.78607816,127.1344423
전라북도 전주시 완산구 구이로 2094-0,35.78322279,127.131981
전라북도 전주시 완산구 평화13길 15-0,35.79059439,127.137478
전라북도 전주시 완산구 장승배기로 186,35.79548374,127.1332432
전라북도 전주시 완산구 꽃밭정로 49,35.79822937,127.1378626
전라북도 전주시 완산구 모악로 4746,35.7929159,127.1323047
전라북도 전주시 완산구 덕적골2길 22-0,35.79661683,127.1401966
전라북도 전주시 완산구 거마산로 3-0,35.79645917,127.1217775
전라북도 전주시 완산구 거마산2길 21-4,35.79601864,127.1226499
전라북도 전주시 완산구 삼천천변1길 32-0,35.79394568,127.1133443
전라북도 전주시 완산구 강변로 96-0,35.79981751,127.1112145
전라북도 전주시 완산구 양지1길 15-11,35.79185206,127.1200124
전라북도 전주시 완산구 삼천천변2길 39-0,35.79669542,127.1145944
전라북도 전주시 완산구 용리로 90-0,35.79848638,127.1196267
전라북도 전주시 완산구 백제대로 58-0,35.7997485,127.1290417
전라북도 전주시 완산구 거마중앙로 11-0,35.79664482,127.1180778
전라북도 전주시 완산구 삼천천변3길 22-0,35.79789833,127.1120196
전라북도 전주시 완산구 흑석로 21-1,35.80219699,127.1503508
전라북도 전주시 완산구 서학로 19-0,35.8098506,127.1516402
전라북도 전주시 완산구 장승배기로 378-4,35.80472069,127.151084
전라북도 전주시 완산구 서학로 36-0,35.80945714,127.1533902
전라북도 전주시 완산구 천경로 1-0,35.80667035,127.1530383
전라북도 전주시 완산구 고덕산1길 14-0,35.79805595,127.1784386
전라북도 전주시 완산구 춘향로 5277-0,35.80066289,127.1708426
전라북도 전주시 완산구 매곡로 27-17,35.80960801,127.1448158
전라북도 전주시 완산구 용머리로 212-0,35.80770596,127.1332238
전라북도 전주시 완산구 신봉로 48-0,35.81019755,127.120093
전라북도 전주시 완산구 안행로 112,35.80632019,127.1343503
전라북도 전주시 완산구 안행로 116,35.80652756,127.1342804
전라북도 전주시 완산구 신봉로 48,35.81019755,127.120093
전라북도 전주시 완산구 용머리로 103-18,35.80759445,127.1216875
전라북도 전주시 완산구 효자천변1길 27,35.80048616,127.1141904
전라북도 전주시 완산구 용머리로 9-13,35.80638759,127.1110555
전라북도 전주시 완산구 성지산3길 13-0,35.80535587,127.122155
전라북도 전주시 완산구 강변로 120-1,35.80207485,127.1141536
전라북도 전주시 완산구 거마평로 125-0,35.80410034,127.1146346
전라북도 전주시 완산구 어진길 103-0,35.81662668,127.1490089
전라북도 전주시 완산구 경기전길 120-0,35.81413245,127.1510261
전라북도 전주시 완산구 최명희길 7-0,35.81632981,127.1537333
전라북도 전주시 완산구 기린대로 85-0,35.81703254,127.1540675
전라북도 전주시 완산구 충경로 60,35.81807134,127.1457539
전라북도 전주시 완산구 소태정로 1-0,35.80604358,127.0974304
전라북도 전주시 완산구 우전2길 23-2,35.80649967,127.1072254
전라북도 전주시 완산구 우전2길 10-0,35.805236,127.1080386
전라북도 전주시 완산구 홍산남로 29-7,35.81603753,127.104989
전라북도 전주시 완산구 봉곡1길 36-2,35.81300148,127.1008466
전라북도 전주시 완산구 봉곡3길 38-0,35.81193081,127.1011424
전라북도 전주시 완산구 구룡1길 15-0,35.81191026,127.1034757
전라북도 전주시 완산구 우전2길 37-0,35.80764751,127.1071337
전라북도 전주시 완산구 용호로 34-0,35.80742831,127.1002524
전라북도 전주시 완산구 서원로 354-0,35.8132319,127.132788
전라북도 전주시 완산구 전주객사5길 17-0,35.81894293,127.1454683
전라북도 전주시 완산구 전주객사4길 24-21,35.81939206,127.1444769
전라북도 전주시 완산구 전주객사5길 69,35.82117527,127.1445634
전라북도 전주시 완산구 전주객사3길 27-0,35.81852675,127.1421389
전라북도 전주시 완산구 전주객사4길 74-0,35.82090078,127.1432622
전라북도 전주시 완산구 백제대로 26,35.8220077,127.1217869
전라북도 전주시 완산구 중산중앙로 16,35.81627532,127.1199729
전라북도 전주시 완산구 메너머3길 35,35.82372611,127.1189015
전라북도 전주시 완산구 서원로 280,35.81172528,127.1252132
전라북도 전주시 완산구 산월2길 43-0,35.81391702,127.1184006
전라북도 전주시 완산구 중산중앙로 36-0,35.81639235,127.1220796
전라북도 전주시 완산구 효자로 320-0,35.81895672,127.1204572
전라북도 전주시 완산구 화산천변로 55-0,35.82311411,127.115439
전라북도 전주시 완산구 서원로 270-0,35.81177985,127.1238644
전라북도 전주시 완산구 중산로 43,35.81790372,127.1201495
전라북도 전주시 완산구 태평3길 43-0,35.82407222,127.141891
전라북도 전주시 완산구 태평2길 12-0,35.82276188,127.1409006
전라북도 전주시 완산구 공북로 77-0,35.82623315,127.1402958
전라북도 전주시 완산구 태평2길 21-0,35.82372228,127.139564
전라북도 전주시 완산구 마당재4길 23-0,35.82293076,127.1593817
전라북도 전주시 완산구 물왕멀로 71-0,35.82951587,127.1510991
전라북도 전주시 완산구 인봉1길 48-1,35.82439317,127.1578586
전라북도 전주시 완산구 팔달로 262-9,35.82612669,127.1444207
전라북도 전주시 완산구 기린대로 223-0,35.8263989,127.1456677
전라북도 전주시 완산구 기린대로 161-18,35.82291939,127.149498
전라북도 전주시 완산구 노송광장로 37-0,35.82451984,127.1468001
전라북도 전주시 완산구 서곡로 13-0,35.83234242,127.0972501
전라북도 전주시 완산구 서곡7길 17,35.83177471,127.1008713
전라북도 전주시 완산구 황강서원로 12-0,35.82813631,127.0987243
전라북도 전주시 완산구 배학3길 1-0,35.81977857,127.0968285
전라북도 전주시 완산구 문학대3길 1-0,35.82667415,127.1016971
전라북도 전주시 완산구 서곡로 77-0,35.83569852,127.1015094
전라북도 전주시 완산구 척동9길 1-0,35.82461753,127.0998085
전라북도 전주시 완산구 척동2길 3-0,35.82144468,127.1003001
전라북도 전주시 완산구 농소2길 15-3,35.8142832,127.098414
전라북도 전주시 완산구 서곡5길 16-0,35.83767538,127.1013554
전라북도 전주시 완산구 전룡로 73-0,35.82807424,127.1206215
전라북도 전주시 완산구 서신로 109-0,35.83510554,127.1156255
전라북도 전주시 완산구 새터로 74-0,35.83521408,127.1142806
전라북도 전주시 완산구 고사평8길 18-0,35.83661886,127.1119865
전라북도 전주시 완산구 감나무4길 7-0,35.8314881,127.1219812
전라북도 전주시 완산구 당산로 17-0,35.83269481,127.1097105
전라북도 전주시 완산구 새터로 122-5,35.83516034,127.1202102
전라북도 전주시 완산구 온고을로 1-0,35.8333102,127.1221283
전라북도 전주시 완산구 전룡로 121-0,35.82918196,127.125909
전라북도 전주시 완산구 고사평3길 15-0,35.83631613,127.1082529
